{
  "data":
  [
    {
      "name": "Delta Airsoft Events",
      "address": "Taxandriaweg 2, 5141 PA Waalwijk",
      "LatLng": {"latitude":51.69085277187169, "longitude":5.057021152724582},
      "description": "Indoor CQB Airsoft Location"
    },
    {
      "name": "NABV Nationaal Airsoft Center",
      "address": "Tielerweg 9, 4191 NE Geldermalsen",
      "LatLng": {"latitude": 51.88173503246226, "longitude":5.301747550883823},
      "description": "NABV officiele Airsoft Centrum Met Schietbanen. Gratis voor NABV Leden"
    },
    {
      "name": "ACS Compound",
      "address": "Willem van der Ploegweg 1, 9853 TH, Munnikezijl, Nederland",
      "LatLng": {"latitude": 53.32249406664662, "longitude":6.25706545513056},
      "description": "Airsoft Shop en Outdoor Milsim location"
    },
    {
      "name": "Airsoft Jungle",
      "address": "Wandelweg 12A, 1521 AG, Wormerveer, Nederland",
      "LatLng": {"latitude": 52.487301735887364, "longitude":4.794577139750457},
      "description": "Outdoor Airsoft en Paintball"
    },
    {
      "name": "Balls and Arrows",
      "address": "De Serpeling 210, 8219 PZ Lelystad",
      "LatLng": {"latitude": 52.53048392721259, "longitude":5.528065253247028},
      "description": "Outdoor Airsoft en Paintball"
    },
    {
      "name": "Blackout Airsoft Didam",
      "address": "Vincwijcweg 1a, 6941 RG, Didam, Nederland",
      "LatLng": {"latitude": 51.94358364077134, "longitude":6.120140470406424},
      "description": "Outdoor Airsoft"
    },
    {
      "name": "Bunker Hill",
      "address": "Bruineveldweg 7b, 7688 PJ, Daarle, Nederland",
      "LatLng": {"latitude": 52.41927828115879, "longitude": 6.539437439747314},
      "description": "Outdoor Airsoft / Tacsoft"
    },
    {
      "name": "Adventure Paradise",
      "address": "Midden Peelweg 5, 5975MZ Sevenum",
      "LatLng": {"latitude": 51.383991612784286, "longitude": 5.97199484722186},
      "description": "Indoor Airsoft"
    },
    {
      "name": "Airsoft Brothers Horst (aan de Maas)",
      "address": "Dijkerheideweg 4 5961NC Horst",
      "LatLng": {"latitude": 51.438468417184055, "longitude": 6.079808955042353},
      "description": "Indoor Airsoft"
    },
    {
      "name": "ATC-eXperience Veldhoven -outdoor-",
      "address": "Turfweg 9 5504RL Veldhoven",
      "LatLng": {"latitude": 51.3862048733573, "longitude": 5.380935597369601},
      "description": "Outdoor Airsoft"
    }

  ]
}